[
  {
    "icao": "SKBO",
    "iata": "BOG",
    "name": "El Dorado International",
    "city": "Bogota",
    "country": "Colombia",
    "lat": 4.7016,
    "lon": -74.1469,
    "warehouseCapacity": 430,
    "infiniteSource": false
  },
  {
    "icao": "SEQM",
    "iata": "UIO",
    "name": "Mariscal Sucre International",
    "city": "Quito",
    "country": "Ecuador",
    "lat": -0.1133,
    "lon": -78.3586,
    "warehouseCapacity": 410,
    "infiniteSource": false
  },
  {
    "icao": "SVMI",
    "iata": "CCS",
    "name": "Simón Bolívar International",
    "city": "Caracas",
    "country": "Venezuela",
    "lat": 10.6031,
    "lon": -66.9906,
    "warehouseCapacity": 400,
    "infiniteSource": false
  },
  {
    "icao": "SBBR",
    "iata": "BSB",
    "name": "Brasília International",
    "city": "Brasilia",
    "country": "Brasil",
    "lat": -15.8647,
    "lon": -47.9181,
    "warehouseCapacity": 480,
    "infiniteSource": false
  },
  {
    "icao": "SPIM",
    "iata": "LIM",
    "name": "Jorge Chávez International",
    "city": "Lima",
    "country": "Perú",
    "lat": -12.0219,
    "lon": -77.1143,
    "warehouseCapacity": 900,
    "infiniteSource": true
  },
  {
    "icao": "SLLP",
    "iata": "LPB",
    "name": "El Alto International",
    "city": "La Paz",
    "country": "Bolivia",
    "lat": -16.5133,
    "lon": -68.1922,
    "warehouseCapacity": 420,
    "infiniteSource": false
  },
  {
    "icao": "SCEL",
    "iata": "SCL",
    "name": "Arturo Merino Benítez International",
    "city": "Santiago",
    "country": "Chile",
    "lat": -33.3964,
    "lon": -70.7947,
    "warehouseCapacity": 460,
    "infiniteSource": false
  },
  {
    "icao": "SABE",
    "iata": "AEP",
    "name": "Aeroparque Jorge Newbery",
    "city": "Buenos Aires",
    "country": "Argentina",
    "lat": -34.5592,
    "lon": -58.4156,
    "warehouseCapacity": 460,
    "infiniteSource": false
  },
  {
    "icao": "SGAS",
    "iata": "ASU",
    "name": "Silvio Pettirossi International",
    "city": "Asunción",
    "country": "Paraguay",
    "lat": -25.2400,
    "lon": -57.5200,
    "warehouseCapacity": 400,
    "infiniteSource": false
  },
  {
    "icao": "SUAA",
    "iata": "MVD",
    "name": "Carrasco International",
    "city": "Montevideo",
    "country": "Uruguay",
    "lat": -34.7892,
    "lon": -56.2647,
    "warehouseCapacity": 400,
    "infiniteSource": false
  },
  {
    "icao": "LATI",
    "iata": "TIA",
    "name": "Tirana International",
    "city": "Tirana",
    "country": "Albania",
    "lat": 41.4147,
    "lon": 19.7206,
    "warehouseCapacity": 410,
    "infiniteSource": false
  },
  {
    "icao": "EDDI",
    "iata": "TXL",
    "name": "Berlin Brandenburg",
    "city": "Berlin",
    "country": "Alemania",
    "lat": 52.4736,
    "lon": 13.4014,
    "warehouseCapacity": 480,
    "infiniteSource": false
  },
  {
    "icao": "LOWW",
    "iata": "VIE",
    "name": "Vienna International",
    "city": "Viena",
    "country": "Austria",
    "lat": 48.1103,
    "lon": 16.5697,
    "warehouseCapacity": 430,
    "infiniteSource": false
  },
  {
    "icao": "EBCI",
    "iata": "CRL",
    "name": "Brussels South Charleroi",
    "city": "Bruselas",
    "country": "Belgica",
    "lat": 50.4592,
    "lon": 4.4538,
    "warehouseCapacity": 800,
    "infiniteSource": true
  },
  {
    "icao": "UMMS",
    "iata": "MSQ",
    "name": "Minsk National",
    "city": "Minsk",
    "country": "Bielorrusia",
    "lat": 53.8822,
    "lon": 28.0325,
    "warehouseCapacity": 400,
    "infiniteSource": false
  },
  {
    "icao": "LBSF",
    "iata": "SOF",
    "name": "Sofia Airport",
    "city": "Sofia",
    "country": "Bulgaria",
    "lat": 42.6906,
    "lon": 23.4064,
    "warehouseCapacity": 400,
    "infiniteSource": false
  },
  {
    "icao": "LKPR",
    "iata": "PRG",
    "name": "Václav Havel Airport",
    "city": "Praga",
    "country": "Checa",
    "lat": 50.1014,
    "lon": 14.2656,
    "warehouseCapacity": 400,
    "infiniteSource": false
  },
  {
    "icao": "LDZA",
    "iata": "ZAG",
    "name": "Zagreb Airport",
    "city": "Zagreb",
    "country": "Croacia",
    "lat": 45.7428,
    "lon": 16.0686,
    "warehouseCapacity": 420,
    "infiniteSource": false
  },
  {
    "icao": "EKCH",
    "iata": "CPH",
    "name": "Copenhagen Airport",
    "city": "Copenhague",
    "country": "Dinamarca",
    "lat": 55.6181,
    "lon": 12.6561,
    "warehouseCapacity": 480,
    "infiniteSource": false
  },
  {
    "icao": "EHAM",
    "iata": "AMS",
    "name": "Amsterdam Schiphol",
    "city": "Amsterdam",
    "country": "Holanda",
    "lat": 52.3000,
    "lon": 4.7650,
    "warehouseCapacity": 480,
    "infiniteSource": false
  },
  {
    "icao": "VIDP",
    "iata": "DEL",
    "name": "Indira Gandhi International",
    "city": "Delhi",
    "country": "India",
    "lat": 28.5667,
    "lon": 77.1031,
    "warehouseCapacity": 480,
    "infiniteSource": false
  },
  {
    "icao": "OSDI",
    "iata": "DAM",
    "name": "Damascus International",
    "city": "Damasco",
    "country": "Siria",
    "lat": 33.4114,
    "lon": 36.5156,
    "warehouseCapacity": 400,
    "infiniteSource": false
  },
  {
    "icao": "OERK",
    "iata": "RUH",
    "name": "King Khalid International",
    "city": "Riad",
    "country": "Arabia Saudita",
    "lat": 24.9578,
    "lon": 46.6989,
    "warehouseCapacity": 420,
    "infiniteSource": false
  },
  {
    "icao": "OMDB",
    "iata": "DXB",
    "name": "Dubai International",
    "city": "Dubai",
    "country": "Emiratos A.U",
    "lat": 25.2528,
    "lon": 55.3644,
    "warehouseCapacity": 420,
    "infiniteSource": false
  },
  {
    "icao": "OAKB",
    "iata": "KBL",
    "name": "Hamid Karzai International",
    "city": "Kabul",
    "country": "Afganistan",
    "lat": 34.5656,
    "lon": 69.2114,
    "warehouseCapacity": 480,
    "infiniteSource": false
  },
  {
    "icao": "OOMS",
    "iata": "MCT",
    "name": "Muscat International",
    "city": "Mascate",
    "country": "Oman",
    "lat": 23.5894,
    "lon": 58.2839,
    "warehouseCapacity": 460,
    "infiniteSource": false
  },
  {
    "icao": "OYSN",
    "iata": "SAH",
    "name": "Sana'a International",
    "city": "Sana",
    "country": "Yemen",
    "lat": 15.4761,
    "lon": 44.2197,
    "warehouseCapacity": 420,
    "infiniteSource": false
  },
  {
    "icao": "OPKC",
    "iata": "KHI",
    "name": "Jinnah International",
    "city": "Karachi",
    "country": "Pakistan",
    "lat": 24.9000,
    "lon": 67.1500,
    "warehouseCapacity": 410,
    "infiniteSource": false
  },
  {
    "icao": "UBBB",
    "iata": "GYD",
    "name": "Heydar Aliyev International",
    "city": "Baku",
    "country": "Azerbaiyan",
    "lat": 40.4675,
    "lon": 50.0467,
    "warehouseCapacity": 700,
    "infiniteSource": true
  },
  {
    "icao": "OJAI",
    "iata": "AMM",
    "name": "Queen Alia International",
    "city": "Aman",
    "country": "Jordania",
    "lat": 31.7225,
    "lon": 35.9931,
    "warehouseCapacity": 400,
    "infiniteSource": false
  }
]